{
  "data": [
    {
      "id": "montgomery-6",
      "name": "Architectural Review Board",
      "date": "2025-12-17",
      "time": "Time TBD",
      "location": "Montgomery City Hall",
      "committee": "City Council",
      "type": "city-council",
      "level": "local",
      "lat": 32.3792,
      "lng": -86.3077,
      "zipCode": null,
      "city": "Montgomery",
      "state": "AL",
      "url": "https://www.montgomeryal.gov/Home/Components/Calendar/Event/10336/17"
    },
    {
      "id": "montgomery-10",
      "name": "Board of Adjustment",
      "date": "2025-12-17",
      "time": "Time TBD",
      "location": "Montgomery City Hall",
      "committee": "City Council",
      "type": "city-council",
      "level": "local",
      "lat": 32.3792,
      "lng": -86.3077,
      "zipCode": null,
      "city": "Montgomery",
      "state": "AL",
      "url": "https://www.montgomeryal.gov/Home/Components/Calendar/Event/10351/17"
    },
    {
      "id": "montgomery-54",
      "name": "Personnel Board Meeting",
      "date": "2025-12-17",
      "time": "Time TBD",
      "location": "Montgomery City Hall",
      "committee": "City Council",
      "type": "city-council",
      "level": "local",
      "lat": 32.3792,
      "lng": -86.3077,
      "zipCode": null,
      "city": "Montgomery",
      "state": "AL",
      "url": "https://www.montgomeryal.gov/Home/Components/Calendar/Event/10880/17"
    },
    {
      "id": "montgomery-156",
      "name": "Public Art Commission",
      "date": "2025-12-17",
      "time": "Time TBD",
      "location": "Montgomery City Hall",
      "committee": "City Council",
      "type": "city-council",
      "level": "local",
      "lat": 32.3792,
      "lng": -86.3077,
      "zipCode": null,
      "city": "Montgomery",
      "state": "AL",
      "url": "https://www.montgomeryal.gov/play/public-art-commission"
    },
    {
      "id": "montgomery-197",
      "name": "City Council",
      "date": "2025-12-17",
      "time": "Time TBD",
      "location": "Montgomery City Hall",
      "committee": "City Council",
      "type": "city-council",
      "level": "local",
      "lat": 32.3792,
      "lng": -86.3077,
      "zipCode": null,
      "city": "Montgomery",
      "state": "AL",
      "url": "https://www.montgomeryal.gov/government/city-government/city-council"
    },
    {
      "id": "montgomery-234",
      "name": "Montgomery Military & Veterans Commission",
      "date": "2025-12-17",
      "time": "Time TBD",
      "location": "Montgomery City Hall",
      "committee": "City Council",
      "type": "city-council",
      "level": "local",
      "lat": 32.3792,
      "lng": -86.3077,
      "zipCode": null,
      "city": "Montgomery",
      "state": "AL",
      "url": "https://www.montgomeryal.gov/government/city-government/mayor-s-office/montgomery-military-veterans-commission"
    },
    {
      "id": "montgomery-235",
      "name": "Mayor's Young Professional Council",
      "date": "2025-12-17",
      "time": "Time TBD",
      "location": "Montgomery City Hall",
      "committee": "City Council",
      "type": "city-council",
      "level": "local",
      "lat": 32.3792,
      "lng": -86.3077,
      "zipCode": null,
      "city": "Montgomery",
      "state": "AL",
      "url": "https://www.montgomeryal.gov/government/city-government/mayor-s-office/mayor-s-young-professional-council"
    },
    {
      "id": "montgomery-256",
      "name": "Public Meeting Videos",
      "date": "2025-12-17",
      "time": "Time TBD",
      "location": "Montgomery City Hall",
      "committee": "City Council",
      "type": "city-council",
      "level": "local",
      "lat": 32.3792,
      "lng": -86.3077,
      "zipCode": null,
      "city": "Montgomery",
      "state": "AL",
      "url": "https://www.montgomeryal.gov/government/stay-informed/video-library/public-meeting-videos"
    },
    {
      "id": "montgomery-263",
      "name": "For Boards and Commissions",
      "date": "2025-12-17",
      "time": "Time TBD",
      "location": "Montgomery City Hall",
      "committee": "City Council",
      "type": "city-council",
      "level": "local",
      "lat": 32.3792,
      "lng": -86.3077,
      "zipCode": null,
      "city": "Montgomery",
      "state": "AL",
      "url": "https://www.montgomeryal.gov/how-do-i/apply-for/for-boards-and-commissions"
    },
    {
      "id": "montgomery-312",
      "name": "For Boards and Commissions",
      "date": "2025-12-17",
      "time": "Time TBD",
      "location": "Montgomery City Hall",
      "committee": "City Council",
      "type": "city-council",
      "level": "local",
      "lat": 32.3792,
      "lng": -86.3077,
      "zipCode": null,
      "city": "Montgomery",
      "state": "AL",
      "url": "https://www.montgomeryal.gov/how-do-i/volunteer/for-boards-and-commissions"
    },
    {
      "id": "montgomery-318",
      "name": "City Council Meetings",
      "date": "2025-12-17",
      "time": "Time TBD",
      "location": "Montgomery City Hall",
      "committee": "City Council",
      "type": "city-council",
      "level": "local",
      "lat": 32.3792,
      "lng": -86.3077,
      "zipCode": null,
      "city": "Montgomery",
      "state": "AL",
      "url": "https://www.montgomeryal.gov/how-do-i/watch/city-council-meetings"
    },
    {
      "id": "montgomery-324",
      "name": "Meetings",
      "date": "2025-12-17",
      "time": "Time TBD",
      "location": "Montgomery City Hall",
      "committee": "City Council",
      "type": "city-council",
      "level": "local",
      "lat": 32.3792,
      "lng": -86.3077,
      "zipCode": null,
      "city": "Montgomery",
      "state": "AL",
      "url": "https://www.montgomeryal.gov/government/city-government/city-calendar"
    }
  ],
  "timestamp": 1765973340115,
  "expiresAt": 1766059740115
}