{
  "data": [
    {
      "id": "lexington-aHR0cHM6Ly93",
      "name": "Environmental Commission Meeting",
      "date": "2025-12-01",
      "time": "4:30 PM",
      "location": "Lexington, KY",
      "type": "Commission Meeting",
      "level": "local",
      "lat": 38.0406,
      "lng": -84.5037,
      "zipCode": null,
      "city": "Lexington",
      "state": "KY",
      "url": "https://www.lexingtonky.gov/calendar/2025-12-01/environmental-commission-meeting"
    },
    {
      "id": "lexington-aHR0cHM6Ly93",
      "name": "Festive Cookie Night",
      "date": "2025-12-01",
      "time": "5 PM",
      "location": "Lexington, KY",
      "type": "Meeting",
      "level": "local",
      "lat": 38.0406,
      "lng": -84.5037,
      "zipCode": null,
      "city": "Lexington",
      "state": "KY",
      "url": "https://www.lexingtonky.gov/calendar/2025-12-01/festive-cookie-night"
    },
    {
      "id": "lexington-aHR0cHM6Ly93",
      "name": "Internal Audit Board Meeting",
      "date": "2025-12-02",
      "time": "11 AM",
      "location": "Lexington, KY",
      "type": "Board Meeting",
      "level": "local",
      "lat": 38.0406,
      "lng": -84.5037,
      "zipCode": null,
      "city": "Lexington",
      "state": "KY",
      "url": "https://www.lexingtonky.gov/calendar/2025-12-02/internal-audit-board-meeting"
    },
    {
      "id": "lexington-aHR0cHM6Ly93",
      "name": "General Government & Planning Committee",
      "date": "2025-12-02",
      "time": "1 PM",
      "location": "Lexington, KY",
      "type": "Committee Meeting",
      "level": "local",
      "lat": 38.0406,
      "lng": -84.5037,
      "zipCode": null,
      "city": "Lexington",
      "state": "KY",
      "url": "https://www.lexingtonky.gov/calendar/2025-12-02/general-government-planning-committee"
    },
    {
      "id": "lexington-aHR0cHM6Ly93",
      "name": "Administrative Hearing Board",
      "date": "2025-12-03",
      "time": "1 PM",
      "location": "Lexington, KY",
      "type": "Board Meeting",
      "level": "local",
      "lat": 38.0406,
      "lng": -84.5037,
      "zipCode": null,
      "city": "Lexington",
      "state": "KY",
      "url": "https://www.lexingtonky.gov/calendar/2025-12-03/administrative-hearing-board"
    },
    {
      "id": "lexington-aHR0cHM6Ly93",
      "name": "Homelessness Prevention and Intervention Board Committee Meeting: Data and Systems Integration",
      "date": "2025-12-03",
      "time": "1:30 PM",
      "location": "Lexington, KY",
      "type": "Committee Meeting",
      "level": "local",
      "lat": 38.0406,
      "lng": -84.5037,
      "zipCode": null,
      "city": "Lexington",
      "state": "KY",
      "url": "https://www.lexingtonky.gov/calendar/2025-12-03/homelessness-prevention-intervention-board-committee-meeting-data-systems-integration"
    },
    {
      "id": "lexington-aHR0cHM6Ly93",
      "name": "Planning Commission- Subdivision (Sub) Committee Meeting",
      "date": "2025-12-04",
      "time": "8:30 AM",
      "location": "Lexington, KY",
      "type": "Committee Meeting",
      "level": "local",
      "lat": 38.0406,
      "lng": -84.5037,
      "zipCode": null,
      "city": "Lexington",
      "state": "KY",
      "url": "https://www.lexingtonky.gov/calendar/2025-12-04/planning-commission-subdivision-sub-committee-meeting"
    },
    {
      "id": "lexington-aHR0cHM6Ly93",
      "name": "Lexington-Fayette Urban County Industrial Authority",
      "date": "2025-12-04",
      "time": "9 AM",
      "location": "Lexington, KY",
      "type": "Meeting",
      "level": "local",
      "lat": 38.0406,
      "lng": -84.5037,
      "zipCode": null,
      "city": "Lexington",
      "state": "KY",
      "url": "https://www.lexingtonky.gov/calendar/2025-12-04/lexington-fayette-urban-county-industrial-authority"
    },
    {
      "id": "lexington-aHR0cHM6Ly93",
      "name": "Senior Services Commission Meeting",
      "date": "2025-12-05",
      "time": "8:30 AM",
      "location": "Lexington, KY",
      "type": "Commission Meeting",
      "level": "local",
      "lat": 38.0406,
      "lng": -84.5037,
      "zipCode": null,
      "city": "Lexington",
      "state": "KY",
      "url": "https://www.lexingtonky.gov/calendar/2025-12-05/senior-services-commission-meeting"
    },
    {
      "id": "lexington-aHR0cHM6Ly93",
      "name": "Stormwater Stakeholder Advisory Committee",
      "date": "2025-12-05",
      "time": "9 AM",
      "location": "Lexington, KY",
      "type": "Committee Meeting",
      "level": "local",
      "lat": 38.0406,
      "lng": -84.5037,
      "zipCode": null,
      "city": "Lexington",
      "state": "KY",
      "url": "https://www.lexingtonky.gov/calendar/2025-12-05/stormwater-stakeholder-advisory-committee"
    },
    {
      "id": "lexington-aHR0cHM6Ly93",
      "name": "Holiday Nature Ornaments",
      "date": "2025-12-06",
      "time": "11 AM",
      "location": "Lexington, KY",
      "type": "Meeting",
      "level": "local",
      "lat": 38.0406,
      "lng": -84.5037,
      "zipCode": null,
      "city": "Lexington",
      "state": "KY",
      "url": "https://www.lexingtonky.gov/calendar/2025-12-06/holiday-nature-ornaments"
    },
    {
      "id": "lexington-aHR0cHM6Ly93",
      "name": "McConnell Springs History Walk",
      "date": "2025-12-07",
      "time": "2 PM",
      "location": "Lexington, KY",
      "type": "Meeting",
      "level": "local",
      "lat": 38.0406,
      "lng": -84.5037,
      "zipCode": null,
      "city": "Lexington",
      "state": "KY",
      "url": "https://www.lexingtonky.gov/calendar/2025-12-07/mcconnell-springs-history-walk"
    },
    {
      "id": "lexington-aHR0cHM6Ly93",
      "name": "Queens' Club: Girls Mentorship Group",
      "date": "2025-12-07",
      "time": "6 PM",
      "location": "Lexington, KY",
      "type": "Meeting",
      "level": "local",
      "lat": 38.0406,
      "lng": -84.5037,
      "zipCode": null,
      "city": "Lexington",
      "state": "KY",
      "url": "https://www.lexingtonky.gov/calendar/2025-12-07/queens-club-girls-mentorship-group"
    },
    {
      "id": "lexington-aHR0cHM6Ly93",
      "name": "Board of Adjustment Meeting",
      "date": "2025-12-08",
      "time": "1:30 PM",
      "location": "Lexington, KY",
      "type": "Board Meeting",
      "level": "local",
      "lat": 38.0406,
      "lng": -84.5037,
      "zipCode": null,
      "city": "Lexington",
      "state": "KY",
      "url": "https://www.lexingtonky.gov/calendar/2025-12-08/board-adjustment-meeting"
    },
    {
      "id": "lexington-aHR0cHM6Ly93",
      "name": "Lexington Children's Museum",
      "date": "2025-12-09",
      "time": "4 PM",
      "location": "Lexington, KY",
      "type": "Meeting",
      "level": "local",
      "lat": 38.0406,
      "lng": -84.5037,
      "zipCode": null,
      "city": "Lexington",
      "state": "KY",
      "url": "https://www.lexingtonky.gov/calendar/2025-12-09/lexington-childrens-museum"
    },
    {
      "id": "lexington-aHR0cHM6Ly93",
      "name": "On The Move Art Studio",
      "date": "2025-12-09",
      "time": "6 PM",
      "location": "Lexington, KY",
      "type": "Meeting",
      "level": "local",
      "lat": 38.0406,
      "lng": -84.5037,
      "zipCode": null,
      "city": "Lexington",
      "state": "KY",
      "url": "https://www.lexingtonky.gov/calendar/2025-12-09/move-art-studio"
    },
    {
      "id": "lexington-aHR0cHM6Ly93",
      "name": "Tree Board",
      "date": "2025-12-10",
      "time": "10:30 AM",
      "location": "Lexington, KY",
      "type": "Board Meeting",
      "level": "local",
      "lat": 38.0406,
      "lng": -84.5037,
      "zipCode": null,
      "city": "Lexington",
      "state": "KY",
      "url": "https://www.lexingtonky.gov/calendar/2025-12-10/tree-board"
    },
    {
      "id": "lexington-aHR0cHM6Ly93",
      "name": "Commission on Veterans' Affairs Meeting",
      "date": "2025-12-10",
      "time": "11:30 AM",
      "location": "Lexington, KY",
      "type": "Commission Meeting",
      "level": "local",
      "lat": 38.0406,
      "lng": -84.5037,
      "zipCode": null,
      "city": "Lexington",
      "state": "KY",
      "url": "https://www.lexingtonky.gov/calendar/2025-12-10/commission-veterans-affairs-meeting"
    },
    {
      "id": "lexington-aHR0cHM6Ly93",
      "name": "Planning Commission Meeting – Subdivision Items",
      "date": "2025-12-11",
      "time": "1:30 PM",
      "location": "Lexington, KY",
      "type": "Commission Meeting",
      "level": "local",
      "lat": 38.0406,
      "lng": -84.5037,
      "zipCode": null,
      "city": "Lexington",
      "state": "KY",
      "url": "https://www.lexingtonky.gov/calendar/2025-12-11/planning-commission-meeting-subdivision-items"
    },
    {
      "id": "lexington-aHR0cHM6Ly93",
      "name": "Lexington Children's Museum",
      "date": "2025-12-11",
      "time": "4 PM",
      "location": "Lexington, KY",
      "type": "Meeting",
      "level": "local",
      "lat": 38.0406,
      "lng": -84.5037,
      "zipCode": null,
      "city": "Lexington",
      "state": "KY",
      "url": "https://www.lexingtonky.gov/calendar/2025-12-11/lexington-childrens-museum"
    },
    {
      "id": "lexington-aHR0cHM6Ly93",
      "name": "Canceled - Second Friday Bird Walk",
      "date": "2025-12-12",
      "time": "9 AM",
      "location": "Lexington, KY",
      "type": "Meeting",
      "level": "local",
      "lat": 38.0406,
      "lng": -84.5037,
      "zipCode": null,
      "city": "Lexington",
      "state": "KY",
      "url": "https://www.lexingtonky.gov/calendar/2025-12-12/second-friday-bird-walk"
    },
    {
      "id": "lexington-aHR0cHM6Ly93",
      "name": "Karaoke Night",
      "date": "2025-12-12",
      "time": "4 PM",
      "location": "Lexington, KY",
      "type": "Meeting",
      "level": "local",
      "lat": 38.0406,
      "lng": -84.5037,
      "zipCode": null,
      "city": "Lexington",
      "state": "KY",
      "url": "https://www.lexingtonky.gov/calendar/2025-12-12/karaoke-night"
    },
    {
      "id": "lexington-aHR0cHM6Ly93",
      "name": "Yoga Flow with The Ashventure",
      "date": "2025-12-13",
      "time": "9 AM",
      "location": "Lexington, KY",
      "type": "Meeting",
      "level": "local",
      "lat": 38.0406,
      "lng": -84.5037,
      "zipCode": null,
      "city": "Lexington",
      "state": "KY",
      "url": "https://www.lexingtonky.gov/calendar/2025-12-13/yoga-flow-ashventure"
    },
    {
      "id": "lexington-aHR0cHM6Ly93",
      "name": "Take a Hike – Scavenger Hunt",
      "date": "2025-12-13",
      "time": "9:30 AM",
      "location": "Lexington, KY",
      "type": "Meeting",
      "level": "local",
      "lat": 38.0406,
      "lng": -84.5037,
      "zipCode": null,
      "city": "Lexington",
      "state": "KY",
      "url": "https://www.lexingtonky.gov/calendar/2025-12-13/take-hike-scavenger-hunt"
    },
    {
      "id": "lexington-aHR0cHM6Ly93",
      "name": "Administrative Hearing Board",
      "date": "2025-12-15",
      "time": "11:30 AM",
      "location": "Lexington, KY",
      "type": "Board Meeting",
      "level": "local",
      "lat": 38.0406,
      "lng": -84.5037,
      "zipCode": null,
      "city": "Lexington",
      "state": "KY",
      "url": "https://www.lexingtonky.gov/calendar/2025-12-15/administrative-hearing-board"
    },
    {
      "id": "lexington-aHR0cHM6Ly93",
      "name": "Lexington Children's Museum",
      "date": "2025-12-15",
      "time": "4 PM",
      "location": "Lexington, KY",
      "type": "Meeting",
      "level": "local",
      "lat": 38.0406,
      "lng": -84.5037,
      "zipCode": null,
      "city": "Lexington",
      "state": "KY",
      "url": "https://www.lexingtonky.gov/calendar/2025-12-15/lexington-childrens-museum"
    },
    {
      "id": "lexington-aHR0cHM6Ly93",
      "name": "Administrative Hearing Board",
      "date": "2025-12-16",
      "time": "1 PM",
      "location": "Lexington, KY",
      "type": "Board Meeting",
      "level": "local",
      "lat": 38.0406,
      "lng": -84.5037,
      "zipCode": null,
      "city": "Lexington",
      "state": "KY",
      "url": "https://www.lexingtonky.gov/calendar/2025-12-16/administrative-hearing-board"
    },
    {
      "id": "lexington-aHR0cHM6Ly93",
      "name": "Book Club",
      "date": "2025-12-16",
      "time": "5 PM",
      "location": "Lexington, KY",
      "type": "Meeting",
      "level": "local",
      "lat": 38.0406,
      "lng": -84.5037,
      "zipCode": null,
      "city": "Lexington",
      "state": "KY",
      "url": "https://www.lexingtonky.gov/calendar/2025-12-16/book-club"
    },
    {
      "id": "lexington-aHR0cHM6Ly93",
      "name": "Technical Review Committee",
      "date": "2025-12-17",
      "time": "8:30 AM",
      "location": "Lexington, KY",
      "type": "Committee Meeting",
      "level": "local",
      "lat": 38.0406,
      "lng": -84.5037,
      "zipCode": null,
      "city": "Lexington",
      "state": "KY",
      "url": "https://www.lexingtonky.gov/calendar/2025-12-17/technical-review-committee"
    },
    {
      "id": "lexington-aHR0cHM6Ly93",
      "name": "Tiny Tot Naturalist \"Winter Wildlife\"",
      "date": "2025-12-17",
      "time": "10 AM",
      "location": "Lexington, KY",
      "type": "Meeting",
      "level": "local",
      "lat": 38.0406,
      "lng": -84.5037,
      "zipCode": null,
      "city": "Lexington",
      "state": "KY",
      "url": "https://www.lexingtonky.gov/calendar/2025-12-17/tiny-tot-naturalist-winter-wildlife"
    },
    {
      "id": "lexington-aHR0cHM6Ly93",
      "name": "Infrastructure Hearing Board",
      "date": "2025-12-18",
      "time": "1 PM",
      "location": "Lexington, KY",
      "type": "Board Meeting",
      "level": "local",
      "lat": 38.0406,
      "lng": -84.5037,
      "zipCode": null,
      "city": "Lexington",
      "state": "KY",
      "url": "https://www.lexingtonky.gov/calendar/2025-12-18/infrastructure-hearing-board"
    },
    {
      "id": "lexington-aHR0cHM6Ly93",
      "name": "Planning Commission - Zoning Items",
      "date": "2025-12-18",
      "time": "1:30 PM",
      "location": "Lexington, KY",
      "type": "Commission Meeting",
      "level": "local",
      "lat": 38.0406,
      "lng": -84.5037,
      "zipCode": null,
      "city": "Lexington",
      "state": "KY",
      "url": "https://www.lexingtonky.gov/calendar/2025-12-18/planning-commission-zoning-items"
    },
    {
      "id": "lexington-aHR0cHM6Ly93",
      "name": "Workshop with the Engineering, Development & Construction Industry",
      "date": "2025-12-19",
      "time": "8:30 AM",
      "location": "Lexington, KY",
      "type": "Meeting",
      "level": "local",
      "lat": 38.0406,
      "lng": -84.5037,
      "zipCode": null,
      "city": "Lexington",
      "state": "KY",
      "url": "https://www.lexingtonky.gov/calendar/2025-12-19/workshop-engineering-development-construction-industry"
    },
    {
      "id": "lexington-aHR0cHM6Ly93",
      "name": "Glow Games",
      "date": "2025-12-19",
      "time": "5 PM",
      "location": "Lexington, KY",
      "type": "Meeting",
      "level": "local",
      "lat": 38.0406,
      "lng": -84.5037,
      "zipCode": null,
      "city": "Lexington",
      "state": "KY",
      "url": "https://www.lexingtonky.gov/calendar/2025-12-19/glow-games"
    },
    {
      "id": "lexington-aHR0cHM6Ly93",
      "name": "Junior Naturalist \"Winter Wildlife\"",
      "date": "2025-12-20",
      "time": "10 AM",
      "location": "Lexington, KY",
      "type": "Meeting",
      "level": "local",
      "lat": 38.0406,
      "lng": -84.5037,
      "zipCode": null,
      "city": "Lexington",
      "state": "KY",
      "url": "https://www.lexingtonky.gov/calendar/2025-12-20/junior-naturalist-winter-wildlife"
    },
    {
      "id": "lexington-aHR0cHM6Ly93",
      "name": "Introduction to Archery-Youth",
      "date": "2025-12-20",
      "time": "10:30 AM",
      "location": "Lexington, KY",
      "type": "Meeting",
      "level": "local",
      "lat": 38.0406,
      "lng": -84.5037,
      "zipCode": null,
      "city": "Lexington",
      "state": "KY",
      "url": "https://www.lexingtonky.gov/calendar/2025-12-20/introduction-archery-youth"
    },
    {
      "id": "lexington-aHR0cHM6Ly93",
      "name": "Hisle Farm Park - Wreath Making",
      "date": "2025-12-22",
      "time": "11:30 AM",
      "location": "Lexington, KY",
      "type": "Meeting",
      "level": "local",
      "lat": 38.0406,
      "lng": -84.5037,
      "zipCode": null,
      "city": "Lexington",
      "state": "KY",
      "url": "https://www.lexingtonky.gov/calendar/2025-12-22/hisle-farm-park-wreath-making"
    },
    {
      "id": "lexington-aHR0cHM6Ly93",
      "name": "Legendary Festival of Lights Field Trip | Castlewood Community Center",
      "date": "2025-12-23",
      "time": "5:30 PM",
      "location": "Lexington, KY",
      "type": "Meeting",
      "level": "local",
      "lat": 38.0406,
      "lng": -84.5037,
      "zipCode": null,
      "city": "Lexington",
      "state": "KY",
      "url": "https://www.lexingtonky.gov/calendar/2025-12-23/legendary-festival-lights-field-trip-castlewood-community-center"
    },
    {
      "id": "lexington-aHR0cHM6Ly93",
      "name": "Christmas Eve",
      "date": "2025-12-24",
      "time": "8 AM",
      "location": "Lexington, KY",
      "type": "Meeting",
      "level": "local",
      "lat": 38.0406,
      "lng": -84.5037,
      "zipCode": null,
      "city": "Lexington",
      "state": "KY",
      "url": "https://www.lexingtonky.gov/calendar/2025-12-24/christmas-eve"
    },
    {
      "id": "lexington-aHR0cHM6Ly93",
      "name": "Christmas Day",
      "date": "2025-12-25",
      "time": "8 AM",
      "location": "Lexington, KY",
      "type": "Meeting",
      "level": "local",
      "lat": 38.0406,
      "lng": -84.5037,
      "zipCode": null,
      "city": "Lexington",
      "state": "KY",
      "url": "https://www.lexingtonky.gov/calendar/2025-12-25/christmas-day"
    },
    {
      "id": "lexington-aHR0cHM6Ly93",
      "name": "McConnell Springs Volunteer Morning",
      "date": "2025-12-27",
      "time": "10 AM",
      "location": "Lexington, KY",
      "type": "Meeting",
      "level": "local",
      "lat": 38.0406,
      "lng": -84.5037,
      "zipCode": null,
      "city": "Lexington",
      "state": "KY",
      "url": "https://www.lexingtonky.gov/calendar/2025-12-27/mcconnell-springs-volunteer-morning"
    },
    {
      "id": "lexington-aHR0cHM6Ly93",
      "name": "Family Feud",
      "date": "2025-12-30",
      "time": "6 PM",
      "location": "Lexington, KY",
      "type": "Meeting",
      "level": "local",
      "lat": 38.0406,
      "lng": -84.5037,
      "zipCode": null,
      "city": "Lexington",
      "state": "KY",
      "url": "https://www.lexingtonky.gov/calendar/2025-12-30/family-feud"
    }
  ],
  "timestamp": 1765978537018,
  "expiresAt": 1766064937018
}