{
  "count": 4,
  "billsCount": 0,
  "lastUpdated": "2025-12-17T13:05:55.726Z",
  "events": [
    {
      "id": "la-V2F5cyBhbmQg",
      "name": "Ways and Means Committee Meeting",
      "date": "2025-12-19",
      "time": "9:00 AM",
      "location": "Room Room 6, Louisiana State Capitol",
      "committee": "Ways and Means",
      "type": "Committee Meeting",
      "level": "state",
      "state": "LA",
      "city": "Baton Rouge",
      "lat": 30.4515,
      "lng": -91.1871,
      "zipCode": "70802",
      "sourceUrl": "https://legis.la.gov/legis/Agenda.aspx?m=25274",
      "description": "Agenda: To receive an update from the Louisiana Uniform Local Sales; To review and approve the third party convenience fee",
      "bills": []
    },
    {
      "id": "la-R2FtaW5nIENv",
      "name": "Gaming Control Board Committee Meeting",
      "date": "2025-12-18",
      "time": "10:00 AM",
      "location": "Room Room 1, Louisiana State Capitol",
      "committee": "Gaming Control Board",
      "type": "Committee Meeting",
      "level": "state",
      "state": "LA",
      "city": "Baton Rouge",
      "lat": 30.4515,
      "lng": -91.1871,
      "zipCode": "70802",
      "sourceUrl": "https://legis.la.gov/legis/Agenda.aspx?m=5968",
      "description": "",
      "bills": []
    },
    {
      "id": "la-UHVibGljIFJl",
      "name": "Public Retirement Systems' Actuarial Committee Committee Meeting",
      "date": "2025-12-18",
      "time": "1:00 PM",
      "location": "Room Room 5, Louisiana State Capitol",
      "committee": "Public Retirement Systems' Actuarial Committee",
      "type": "Committee Meeting",
      "level": "state",
      "state": "LA",
      "city": "Baton Rouge",
      "lat": 30.4515,
      "lng": -91.1871,
      "zipCode": "70802",
      "sourceUrl": "https://legis.la.gov/legis/Agenda.aspx?m=5971",
      "description": "",
      "bills": []
    },
    {
      "id": "la-Q2FsZWIgV2ls",
      "name": "Caleb Wilson Hazing Prevention Task Force Committee Meeting",
      "date": "2026-01-08",
      "time": "10:00 AM",
      "location": "Room Room 5, Louisiana State Capitol",
      "committee": "Caleb Wilson Hazing Prevention Task Force",
      "type": "Committee Meeting",
      "level": "state",
      "state": "LA",
      "city": "Baton Rouge",
      "lat": 30.4515,
      "lng": -91.1871,
      "zipCode": "70802",
      "sourceUrl": "https://legis.la.gov/legis/Agenda.aspx?m=5867",
      "description": "",
      "bills": []
    }
  ],
  "calendarSources": [
    {
      "name": "Louisiana Legislature Committee Calendar",
      "url": "https://legis.la.gov/legis/ByCmte.aspx",
      "description": "House, Senate, and Joint committee meeting schedules"
    },
    {
      "name": "Local City Meetings (Legistar API)",
      "url": "https://webapi.legistar.com",
      "description": "Baton Rouge and New Orleans city council meetings"
    }
  ]
}
