{
  "count": 5,
  "billsCount": 0,
  "lastUpdated": "2025-12-17T14:51:59.185Z",
  "events": [
    {
      "id": "ok-1765983118326-a-b-natural-resources-subcommittee",
      "name": "A&B Natural Resources Subcommittee",
      "title": "A&B Natural Resources Subcommittee",
      "date": "December 17, 2025",
      "time": "9:00 AM",
      "location": "ROOM 4S5",
      "committee": "A&B Natural Resources Subcommittee",
      "type": "Committee Meeting",
      "level": "state",
      "state": "OK",
      "city": "Oklahoma City",
      "lat": 35.4922,
      "lng": -97.5034,
      "zipCode": "73105",
      "description": "Meeting notice: http://webserver1.lsb.state.ok.us/2025-26HB/CMN-AP-NATUR-20251217-09000000.pdf",
      "sourceUrl": "https://www.okhouse.gov/committees/house/approp/ap-natur",
      "bills": []
    },
    {
      "id": "ok-1765983118514-education-oversight",
      "name": "Education Oversight",
      "title": "Education Oversight",
      "date": "December 17, 2025",
      "time": "9:30 AM",
      "location": "ROOM 450",
      "committee": "Education Oversight",
      "type": "Committee Meeting",
      "level": "state",
      "state": "OK",
      "city": "Oklahoma City",
      "lat": 35.4922,
      "lng": -97.5034,
      "zipCode": "73105",
      "description": "Meeting notice: http://webserver1.lsb.state.ok.us/2025-26HB/CMN-EDUOS-20251217-09300000.pdf",
      "sourceUrl": "https://www.okhouse.gov/committees/house/edu",
      "bills": []
    },
    {
      "id": "ok-1765983118871-a-b-judiciary-subcommittee",
      "name": "A&B Judiciary Subcommittee",
      "title": "A&B Judiciary Subcommittee",
      "date": "January 13, 2026",
      "time": "9:00 AM",
      "location": "ROOM 4S5",
      "committee": "A&B Judiciary Subcommittee",
      "type": "Committee Meeting",
      "level": "state",
      "state": "OK",
      "city": "Oklahoma City",
      "lat": 35.4922,
      "lng": -97.5034,
      "zipCode": "73105",
      "description": "Meeting notice: http://webserver1.lsb.state.ok.us/2025-26HB/CMN-AP-JUDIC-20260113-09000000.pdf",
      "sourceUrl": "https://www.okhouse.gov/committees/house/approp/ap-judic",
      "bills": []
    },
    {
      "id": "ok-1765983118994-a-b-transportation-subcommittee",
      "name": "A&B Transportation Subcommittee",
      "title": "A&B Transportation Subcommittee",
      "date": "January 20, 2026",
      "time": "9:30 AM",
      "location": "ROOM 4S5",
      "committee": "A&B Transportation Subcommittee",
      "type": "Committee Meeting",
      "level": "state",
      "state": "OK",
      "city": "Oklahoma City",
      "lat": 35.4922,
      "lng": -97.5034,
      "zipCode": "73105",
      "description": "Meeting notice: http://webserver1.lsb.state.ok.us/2025-26HB/CMN-AP-TRANS-20260120-09300000.pdf",
      "sourceUrl": "https://www.okhouse.gov/committees/house/approp/ap-trans",
      "bills": []
    },
    {
      "id": "ok-1765983119185-a-b-general-government-subcommittee",
      "name": "A&B General Government Subcommittee",
      "title": "A&B General Government Subcommittee",
      "date": "January 22, 2026",
      "time": "9:00 AM",
      "location": "ROOM 5S2",
      "committee": "A&B General Government Subcommittee",
      "type": "Committee Meeting",
      "level": "state",
      "state": "OK",
      "city": "Oklahoma City",
      "lat": 35.4922,
      "lng": -97.5034,
      "zipCode": "73105",
      "description": "Meeting notice: http://webserver1.lsb.state.ok.us/2025-26HB/CMN-AP-GOV-20260122-09000000.pdf",
      "sourceUrl": "https://www.okhouse.gov/committees/house/approp/ap-gov",
      "bills": []
    }
  ]
}